[
    {
        "station_id": 1,
        "Name": "Max",
        "Location": "Bahan",
        "Phonenumber": "09891755004,01555292",
        "remark": null,
        "township": 7,
        "address": null,
        "company_id": 2,
        "": null
    },
    {
        "station_id": 2,
        "Name": "Max",
        "Location": "Kyun Taw",
        "Phonenumber": "09891755002,01532181",
        "remark": null,
        "township": 22,
        "address": null,
        "company_id": 2,
        "": null
    },
    {
        "station_id": 3,
        "Name": "Max",
        "Location": "Sin Malite",
        "Phonenumber": "09891755016",
        "remark": null,
        "township": 36,
        "address": null,
        "company_id": 2,
        "": null
    },
    {
        "station_id": 4,
        "Name": "Max",
        "Location": "Alone",
        "Phonenumber": "09891755003,01218455",
        "remark": null,
        "township": 2,
        "address": null,
        "company_id": 2,
        "": null
    },
    {
        "station_id": 5,
        "Name": "Max",
        "Location": "Pidauk Chaung",
        "Phonenumber": "09891755001,01531181",
        "remark": null,
        "township": 33,
        "address": null,
        "company_id": 2,
        "": null
    },
    {
        "station_id": 6,
        "Name": "Max",
        "Location": "Thein Phyu",
        "Phonenumber": "09891755006,01399330",
        "remark": null,
        "township": 42,
        "address": null,
        "company_id": 2,
        "": null
    },
    {
        "station_id": 7,
        "Name": "Max",
        "Location": "Tarmwe",
        "Phonenumber": "09891755005,01401525",
        "remark": null,
        "township": 39,
        "address": null,
        "company_id": 2,
        "": null
    },
    {
        "station_id": 8,
        "Name": "Max",
        "Location": "Tharketa",
        "Phonenumber": "09891755008,01450767",
        "remark": null,
        "township": 41,
        "address": null,
        "company_id": 2,
        "": null
    },
    {
        "station_id": 9,
        "Name": "Max",
        "Location": "Thuwanna",
        "Phonenumber": "09891755007,018550750",
        "remark": null,
        "township": 44,
        "address": null,
        "company_id": 2,
        "": null
    },
    {
        "station_id": 10,
        "Name": "Max",
        "Location": "KmarKyi",
        "Phonenumber": "09891755051",
        "remark": null,
        "township": 19,
        "address": null,
        "company_id": 2,
        "": null
    },
    {
        "station_id": 11,
        "Name": "Max",
        "Location": "South Okkalar",
        "Phonenumber": "09891755015,0185006600",
        "remark": null,
        "township": 38,
        "address": null,
        "company_id": 2,
        "": null
    },
    {
        "station_id": 12,
        "Name": "Max",
        "Location": "North Dagon",
        "Phonenumber": "09891755050",
        "remark": null,
        "township": 30,
        "address": null,
        "company_id": 2,
        "": null
    },
    {
        "station_id": 13,
        "Name": "Max",
        "Location": "Lay Daung Kan",
        "Phonenumber": "09891755014,098636189",
        "remark": null,
        "township": 23,
        "address": null,
        "company_id": 2,
        "": null
    },
    {
        "station_id": 14,
        "Name": "Max",
        "Location": "Aung Mingalar",
        "Phonenumber": "09891755009,01637592",
        "remark": null,
        "township": 3,
        "address": null,
        "company_id": 2,
        "": null
    },
    {
        "station_id": 15,
        "Name": "Max",
        "Location": "Dagon Aya",
        "Phonenumber": "09891755012,0973164103",
        "remark": null,
        "township": 9,
        "address": null,
        "company_id": 2,
        "": null
    },
    {
        "station_id": 16,
        "Name": "Max",
        "Location": "Hlegu 1",
        "Phonenumber": "09891755013,01629011",
        "remark": null,
        "township": 14,
        "address": 1,
        "company_id": 2,
        "": null
    },
    {
        "station_id": 17,
        "Name": "Max",
        "Location": "Hlegu 2",
        "Phonenumber": null,
        "remark": null,
        "township": 14,
        "address": 2,
        "company_id": 2,
        "": null
    },
    {
        "station_id": 18,
        "Name": "Max",
        "Location": "Hmawbi 1",
        "Phonenumber": "09891755017",
        "remark": null,
        "township": 15,
        "address": 1,
        "company_id": 2,
        "": null
    },
    {
        "station_id": 19,
        "Name": "Max",
        "Location": "Hmawbi 2",
        "Phonenumber": "09891755018",
        "remark": null,
        "township": 15,
        "address": 2,
        "company_id": 2,
        "": null
    },
    {
        "station_id": 20,
        "Name": "Max",
        "Location": "Shwepyithar",
        "Phonenumber": "09891755011",
        "remark": null,
        "township": 35,
        "address": null,
        "company_id": 2,
        "": null
    },
    {
        "station_id": 21,
        "Name": "Max",
        "Location": "Dala",
        "Phonenumber": "09891755048",
        "remark": null,
        "township": 11,
        "address": null,
        "company_id": 2,
        "": null
    },
    {
        "station_id": 22,
        "Name": "Max",
        "Location": "Kaw Hmue",
        "Phonenumber": "09891755175",
        "remark": null,
        "township": 18,
        "address": null,
        "company_id": 2,
        "": null
    },
    {
        "station_id": 23,
        "Name": "Max",
        "Location": "New Khway",
        "Phonenumber": "09891755178",
        "remark": null,
        "township": 29,
        "address": null,
        "company_id": 2,
        "": null
    },
    {
        "station_id": 24,
        "Name": "Max",
        "Location": "Twen Tae",
        "Phonenumber": "09891755182",
        "remark": null,
        "township": 45,
        "address": null,
        "company_id": 2,
        "": null
    },
    {
        "station_id": 25,
        "Name": "Max",
        "Location": "Mingalardon",
        "Phonenumber": "09891755046",
        "remark": null,
        "township": 27,
        "address": null,
        "company_id": 2,
        "": null
    },
    {
        "station_id": 26,
        "Name": "Denko",
        "Location": "Kone Talapaung",
        "Phonenumber": "09940549225",
        "remark": null,
        "township": 20,
        "address": null,
        "company_id": 1,
        "": null
    },
    {
        "station_id": 27,
        "Name": "Denko",
        "Location": "South Dagon",
        "Phonenumber": "09940549238",
        "remark": null,
        "township": 37,
        "address": null,
        "company_id": 1,
        "": null
    },
    {
        "station_id": 28,
        "Name": "Denko",
        "Location": "Htan Tapin",
        "Phonenumber": "09940549230",
        "remark": null,
        "township": 16,
        "address": null,
        "company_id": 1,
        "": null
    },
    {
        "station_id": 29,
        "Name": "Denko",
        "Location": "Dagon Seikkan",
        "Phonenumber": "09940549241",
        "remark": null,
        "township": 10,
        "address": null,
        "company_id": 1,
        "": null
    },
    {
        "station_id": 30,
        "Name": "Denko",
        "Location": "Bahan",
        "Phonenumber": "09940549231",
        "remark": null,
        "township": 7,
        "address": null,
        "company_id": 1,
        "": null
    },
    {
        "station_id": 31,
        "Name": "Denko",
        "Location": "Botahtaung",
        "Phonenumber": "09940671409",
        "remark": null,
        "township": 8,
        "address": null,
        "company_id": 1,
        "": null
    },
    {
        "station_id": 32,
        "Name": "Denko",
        "Location": "North Dagon",
        "Phonenumber": "09940549234",
        "remark": null,
        "township": 30,
        "address": null,
        "company_id": 1,
        "": null
    },
    {
        "station_id": 33,
        "Name": "Denko",
        "Location": "North Dagon(Pinlon)",
        "Phonenumber": "09940549236",
        "remark": null,
        "township": 30,
        "address": "Pinlon",
        "company_id": 1,
        "": null
    },
    {
        "station_id": 34,
        "Name": "Denko",
        "Location": "North dagon",
        "Phonenumber": "09940549235",
        "remark": null,
        "township": 30,
        "address": null,
        "company_id": 1,
        "": null
    },
    {
        "station_id": 35,
        "Name": "Denko",
        "Location": "North Okkalapa",
        "Phonenumber": "09940549353",
        "remark": null,
        "township": 31,
        "address": null,
        "company_id": 1,
        "": null
    },
    {
        "station_id": 36,
        "Name": "Denko",
        "Location": "Hmawbi",
        "Phonenumber": "09940671412",
        "remark": null,
        "township": 15,
        "address": null,
        "company_id": 1,
        "": null
    },
    {
        "station_id": 37,
        "Name": "Denko",
        "Location": "Shwepyithar",
        "Phonenumber": "09940549242",
        "remark": null,
        "township": 35,
        "address": null,
        "company_id": 1,
        "": null
    },
    {
        "station_id": 38,
        "Name": "Denko",
        "Location": "Hlegu",
        "Phonenumber": "09940549226",
        "remark": null,
        "township": 14,
        "address": null,
        "company_id": 1,
        "": null
    },
    {
        "station_id": 39,
        "Name": "Denko",
        "Location": "Hlaing Tharyar 1",
        "Phonenumber": "09940549227",
        "remark": null,
        "township": 13,
        "address": 1,
        "company_id": 1,
        "": null
    },
    {
        "station_id": 40,
        "Name": "Denko",
        "Location": "Hlaing Tharyar 2",
        "Phonenumber": "09940549228",
        "remark": null,
        "township": 13,
        "address": 2,
        "company_id": 1,
        "": null
    },
    {
        "station_id": 41,
        "Name": "Denko",
        "Location": "Hlaing Tharyar 3",
        "Phonenumber": "09940549229",
        "remark": null,
        "township": 13,
        "address": 3,
        "company_id": 1,
        "": null
    },
    {
        "station_id": 42,
        "Name": "Denko",
        "Location": "Thanlyin (Myoma)",
        "Phonenumber": "09940549239",
        "remark": null,
        "township": 40,
        "address": "Myoma",
        "company_id": 1,
        "": null
    },
    {
        "station_id": 43,
        "Name": "Denko",
        "Location": "Thanlyin 2 (Aung Chanthar)",
        "Phonenumber": "09940549240",
        "remark": null,
        "township": 40,
        "address": "Aung Chanthar",
        "company_id": 1,
        "": null
    },
    {
        "station_id": 44,
        "Name": "Denko",
        "Location": "Inn Sein",
        "Phonenumber": "09940549233",
        "remark": null,
        "township": 17,
        "address": null,
        "company_id": 1,
        "": null
    },
    {
        "station_id": 45,
        "Name": "Denko",
        "Location": "Aung San",
        "Phonenumber": null,
        "remark": null,
        "township": 4,
        "address": null,
        "company_id": 1,
        "": null
    },
    {
        "station_id": 46,
        "Name": "360 Degree Petrol",
        "Location": "Mingalar Taung Nyunt",
        "Phonenumber": "09772558950",
        "remark": null,
        "township": 26,
        "address": null,
        "company_id": 8,
        "": null
    },
    {
        "station_id": 47,
        "Name": "361 Degree Petrol",
        "Location": "Tharketa",
        "Phonenumber": "09789366895",
        "remark": null,
        "township": 41,
        "address": null,
        "company_id": 9,
        "": null
    },
    {
        "station_id": 48,
        "Name": "362 Degree Petrol",
        "Location": "Thingan Gyun",
        "Phonenumber": "09786409959",
        "remark": null,
        "township": 43,
        "address": null,
        "company_id": 10,
        "": null
    },
    {
        "station_id": 49,
        "Name": "363 Degree Petrol",
        "Location": "North Dagon",
        "Phonenumber": "09775117578",
        "remark": null,
        "township": 30,
        "address": null,
        "company_id": 11,
        "": null
    },
    {
        "station_id": 50,
        "Name": "364 Degree Petrol",
        "Location": "Inn Sein",
        "Phonenumber": "09773043497",
        "remark": null,
        "township": 17,
        "address": null,
        "company_id": 12,
        "": null
    },
    {
        "station_id": 51,
        "Name": "365 Degree Petrol",
        "Location": "Hlaing",
        "Phonenumber": "09764610408",
        "remark": null,
        "township": 12,
        "address": null,
        "company_id": 13,
        "": null
    },
    {
        "station_id": 52,
        "Name": "366 Degree Petrol",
        "Location": "Nay Pyi Taw",
        "Phonenumber": "09786387505",
        "remark": null,
        "township": 28,
        "address": null,
        "company_id": 14,
        "": null
    },
    {
        "station_id": 53,
        "Name": "MMTM(Myat Myittar Mon)",
        "Location": "6Mile Khwal",
        "Phonenumber": "09786595336, 09420247846",
        "remark": null,
        "township": 1,
        "address": null,
        "company_id": 7,
        "": null
    },
    {
        "station_id": 54,
        "Name": "MMTM(Myat Myittar Mon)",
        "Location": "Hlaing Tharyar",
        "Phonenumber": "09893310476",
        "remark": null,
        "township": 13,
        "address": null,
        "company_id": 7,
        "": null
    },
    {
        "station_id": 55,
        "Name": "MMTM(Myat Myittar Mon)",
        "Location": "Hlaing(Bayint Naung)",
        "Phonenumber": "09798833938",
        "remark": null,
        "township": 12,
        "address": "Bayint Naung",
        "company_id": 7,
        "": null
    },
    {
        "station_id": 56,
        "Name": "MMTM(Myat Myittar Mon)",
        "Location": "Kyi Myin Taing",
        "Phonenumber": "01537071,09777004226,09777004234",
        "remark": null,
        "township": 21,
        "address": null,
        "company_id": 7,
        "": null
    },
    {
        "station_id": 57,
        "Name": "MMTM(Myat Myittar Mon)",
        "Location": "North Dagon",
        "Phonenumber": "09788461906",
        "remark": null,
        "township": 30,
        "address": null,
        "company_id": 7,
        "": null
    },
    {
        "station_id": 58,
        "Name": "MMTM(Myat Myittar Mon)",
        "Location": "Tarmwe",
        "Phonenumber": "09255055565",
        "remark": null,
        "township": 39,
        "address": null,
        "company_id": 7,
        "": null
    },
    {
        "station_id": 59,
        "Name": "MMTM(Myat Myittar Mon)",
        "Location": "Thingan Gyun",
        "Phonenumber": "09793758607",
        "remark": null,
        "township": 43,
        "address": null,
        "company_id": 7,
        "": null
    },
    {
        "station_id": 60,
        "Name": "New Day",
        "Location": "Maha Bandula Road",
        "Phonenumber": "011291904",
        "remark": null,
        "township": 24,
        "address": null,
        "company_id": 6,
        "": null
    },
    {
        "station_id": 61,
        "Name": "New Day",
        "Location": "Mayankone",
        "Phonenumber": "01658205",
        "remark": null,
        "township": 25,
        "address": null,
        "company_id": 6,
        "": null
    },
    {
        "station_id": 62,
        "Name": "New Day",
        "Location": "Mingalar Taung Nyunt",
        "Phonenumber": "01290310, 09765421002",
        "remark": null,
        "township": 26,
        "address": null,
        "company_id": 6,
        "": null
    },
    {
        "station_id": 63,
        "Name": "New Day",
        "Location": "San Chaung",
        "Phonenumber": "01534997",
        "remark": null,
        "township": 34,
        "address": null,
        "company_id": 6,
        "": null
    },
    {
        "station_id": 64,
        "Name": "New Day",
        "Location": "South Okkalar",
        "Phonenumber": "018564042, 09765421003",
        "remark": null,
        "township": 38,
        "address": null,
        "company_id": 6,
        "": null
    },
    {
        "station_id": 65,
        "Name": "New Day",
        "Location": "Wai Za Yan Tar Rd",
        "Phonenumber": "01564042",
        "remark": null,
        "township": 46,
        "address": null,
        "company_id": 6,
        "": null
    },
    {
        "station_id": 66,
        "Name": "PT power",
        "Location": "Mingalardon",
        "Phonenumber": "09421068003, 09781593568",
        "remark": null,
        "township": 27,
        "address": null,
        "company_id": 5,
        "": null
    },
    {
        "station_id": 67,
        "Name": "PT power",
        "Location": "Shwepyithar",
        "Phonenumber": "013612778, 09420031017",
        "remark": null,
        "township": 35,
        "address": null,
        "company_id": 5,
        "": null
    },
    {
        "station_id": 68,
        "Name": "PT power",
        "Location": "South Dagon(ward 141)",
        "Phonenumber": "09457755008",
        "remark": null,
        "township": 37,
        "address": "ward 141",
        "company_id": 5,
        "": null
    },
    {
        "station_id": 69,
        "Name": "PT power",
        "Location": "South Dagon(ward 26)",
        "Phonenumber": "09457154781",
        "remark": null,
        "township": 37,
        "address": "ward 26",
        "company_id": 5,
        "": null
    },
    {
        "station_id": 70,
        "Name": "PT power",
        "Location": "South Dagon(ward 62)",
        "Phonenumber": "09457154780, 09788818913",
        "remark": null,
        "township": 37,
        "address": "ward 62",
        "company_id": 5,
        "": null
    },
    {
        "station_id": 71,
        "Name": "PT power",
        "Location": "Thanlyin",
        "Phonenumber": "09457154791, 09778708801",
        "remark": null,
        "township": 40,
        "address": null,
        "company_id": 5,
        "": null
    },
    {
        "station_id": 72,
        "Name": "PT power",
        "Location": "Tharketa",
        "Phonenumber": "09780540598, 09452228385",
        "remark": null,
        "township": 41,
        "address": null,
        "company_id": 5,
        "": null
    },
    {
        "station_id": 73,
        "Name": "PT power",
        "Location": "Tharketa(Shukhinthar Myopat rd)",
        "Phonenumber": "01450758",
        "remark": null,
        "township": 41,
        "address": "Shukhinthar Myopat rd",
        "company_id": 5,
        "": null
    },
    {
        "station_id": 74,
        "Name": "SPB",
        "Location": "Dagon Seikkan",
        "Phonenumber": "09740099952",
        "remark": null,
        "township": 10,
        "address": null,
        "company_id": 3,
        "": null
    },
    {
        "station_id": 75,
        "Name": "SPB",
        "Location": "Inn Sein",
        "Phonenumber": "09740099947",
        "remark": null,
        "township": 17,
        "address": null,
        "company_id": 3,
        "": null
    },
    {
        "station_id": 76,
        "Name": "SPB",
        "Location": "Mingalardon",
        "Phonenumber": "09740099945",
        "remark": null,
        "township": 27,
        "address": null,
        "company_id": 3,
        "": null
    },
    {
        "station_id": 77,
        "Name": "SPB",
        "Location": "Tharketa",
        "Phonenumber": "09740099946",
        "remark": null,
        "township": 41,
        "address": null,
        "company_id": 3,
        "": null
    },
    {
        "station_id": 78,
        "Name": "Yangon Petrol(YP)",
        "Location": "Ayarwoon",
        "Phonenumber": "09683015354",
        "remark": "Open 24 hrs",
        "township": 5,
        "address": null,
        "company_id": 4,
        "": null
    },
    {
        "station_id": 79,
        "Name": "Yangon Petrol(YP)",
        "Location": "Bago River Rd",
        "Phonenumber": "09966124906",
        "remark": "Open 24 hrs",
        "township": 6,
        "address": null,
        "company_id": 4,
        "": null
    },
    {
        "station_id": 80,
        "Name": "Yangon Petrol(YP)",
        "Location": "Dagon Seikkan",
        "Phonenumber": "09966124906",
        "remark": null,
        "township": 10,
        "address": null,
        "company_id": 4,
        "": null
    },
    {
        "station_id": 81,
        "Name": "Yangon Petrol(YP)",
        "Location": "North Dagon",
        "Phonenumber": "09423457766",
        "remark": null,
        "township": 30,
        "address": null,
        "company_id": 4,
        "": null
    },
    {
        "station_id": 82,
        "Name": "Yangon Petrol(YP)",
        "Location": "Number 2 Main Rd",
        "Phonenumber": "09692253832",
        "remark": "Close 9 pm",
        "township": 32,
        "address": null,
        "company_id": 4,
        "": null
    },
    {
        "station_id": 83,
        "Name": "Yangon Petrol(YP)",
        "Location": "Tharketa",
        "Phonenumber": "09966124912, 09448034069",
        "remark": null,
        "township": 41,
        "address": null,
        "company_id": 4,
        "": null
    },
    {
        "station_id": 84,
        "Name": "Yangon Petrol(YP)",
        "Location": "Yadanar Rd ",
        "Phonenumber": "09966124912",
        "remark": "Open 24 hrs",
        "township": 47,
        "address": null,
        "company_id": 4,
        "": null
    }
]